[
  {
    "nick": "kennethmyhra",
    "coordinates": [
      59.91102,
      10.75313
    ],
    "links": {
      "Twitter": "https://twitter.com/kennethmyhra",
      "GitHub": "https://github.com/kennethmyhra",
      "LinkedIn": "https://www.linkedin.com/in/kennethmyhra/",
      "Website": "https://incendi.no/"
    }
  },
  {
    "nick": "Gunnar Beutner - shroud",
    "coordinates": [
      49.4360,
      10.9929
    ],
    "links": {
      "GitHub": "https://github.com/gunnarbeutner",
      "LinkedIn": "https://www.linkedin.com/in/gunnar-beutner-693415167/",
      "Twitter": "https://twitter.com/gunnarbeutner",
      "Website": "https://beutner.name/"
    }
  },
  {
    "nick": "GMTA",
    "coordinates": [
      51.5163,
      5.3634
    ],
    "links": {
      "GitHub": "https://github.com/GMTA",
      "LinkedIn": "https://www.linkedin.com/in/jelleraaijmakers",
      "Twitter": "https://twitter.com/gmta_nl",
      "Website": "https://jelleraaijmakers.nl"
    }
  },
  {
    "nick": "MaxWipfli",
    "coordinates": [
      46.8818,
      8.6439
    ],
    "links": {
      "Website": "https://maxwipfli.ch",
      "Twitter": "https://twitter.com/MaxWipfli",
      "GitHub": "https://github.com/MaxWipfli"
    }
  },
  {
    "nick": "Richard Gráčik - Morc",
    "coordinates": [
      48.4614,
      17.9846
    ],
    "links": {
      "Twitter": "https://twitter.com/morciatka",
      "GitHub": "https://github.com/TheMorc"
    }
  },
  {
    "nick": "CxByte",
    "coordinates": [
      38.077,
      46.292
    ],
    "links": {
      "Twitter": "https://twitter.com/the_semicolon_",
      "GitHub": "https://github.com/alimpfard"
    }
  },
  {
    "nick": "awesomekling",
    "coordinates": [
      57.0838,
      12.2507
    ],
    "links": {
      "Twitter": "https://twitter.com/awesomekling",
      "GitHub": "https://github.com/awesomekling"
    }
  },
  {
    "nick": "breakgimme",
    "coordinates": [
      52.54682,
      19.70638
    ],
    "links": {
      "Website": "https://breakgimme.cf",
      "Twitter": "https://twitter.com/adamos9898",
      "GitHub": "https://github.com/breakgimme"
    }
  },
  {
    "nick": "bugaevc",
    "coordinates": [
      55.752,
      37.6175
    ],
    "links": {
      "Mastodon": "https://mastodon.technology/@bugaevc",
      "GitHub": "https://github.com/bugaevc"
    }
  },
  {
    "nick": "linusg",
    "coordinates": [
      51.51,
      -0.12
    ],
    "links": {
      "Website": "https://linus.dev",
      "Twitter": "https://twitter.com/linusgroh",
      "GitHub": "https://github.com/linusg"
    }
  },
  {
    "nick": "networkException",
    "coordinates": [
      50.10811,
      8.68222
    ],
    "links": {
      "Website": "https://nwex.de",
      "Twitter": "https://twitter.com/netwrkException",
      "GitHub": "https://github.com/networkException"
    }
  },
  {
    "nick": "thakis",
    "coordinates": [
      40.4987,
      -74.0643
    ],
    "links": {
      "GitHub": "https://github.com/nico"
    }
  },
  {
    "nick": "trflynn89",
    "coordinates": [
      42.4523774,
      -71.096081
    ],
    "links": {
      "Website": "https://trflynn89.github.io/",
      "GitHub": "https://github.com/trflynn89"
    }
  },
  {
    "nick": "zaklaus",
    "coordinates": [
      48.5660393,
      19.2284823
    ],
    "links": {
      "Website": "https://madaraszd.net/",
      "GitHub": "https://github.com/zaklaus",
      "Twitter": "https://twitter.com/DMadarasz"
    }
  },
  {
    "nick": "IdanHo",
    "coordinates": [
      32.79,
      34.98
    ],
    "links": {
      "GitHub": "https://github.com/IdanHo"
    }
  },
  {
    "nick": "nicolasdanelon",
    "coordinates": [
      -34.61083,
      -58.4157
    ],
    "links": {
      "Website": "https://nicolasmd.com.ar",
      "GitHub": "https://github.com/nicolasdanelon"
    }
  },
  {
    "nick": "boricj",
    "coordinates": [
      45.46,
      6.08
    ],
    "links": {
      "GitHub": "https://github.com/boricj"
    }
  },
  {
    "nick": "bgianf",
    "coordinates": [
      47.6062095,
      -122.3320708
    ],
    "links": {
      "Website": "https://bjg.io/",
      "GitHub": "https://github.com/bgianfo",
      "Twitter": "https://twitter.com/bgianf"
    }
  },
  {
    "nick": "petelliott",
    "coordinates": [
      53.631611,
      -113.323975
    ],
    "links": {
      "Github": "https://github.com/petelliott"
    }
  }
]
