[
  {
    "nick": "gabrielgggg",
    "coordinates": [40.91316, -73.12032],
    "links": {
      "GitHub": "https://github.com/gabrielgggg",
      "Website": "https://www.gmihalache.com/"
    }
  },
  {
    "nick": "kennethmyhra",
    "coordinates": [59.91102, 10.75313],
    "links": {
      "Twitter": "https://twitter.com/kennethmyhra",
      "GitHub": "https://github.com/kennethmyhra",
      "LinkedIn": "https://www.linkedin.com/in/kennethmyhra/",
      "Website": "https://incendi.no/"
    }
  },
  {
    "nick": "Gunnar Beutner - shroud",
    "coordinates": [49.436, 10.9929],
    "links": {
      "GitHub": "https://github.com/gunnarbeutner",
      "LinkedIn": "https://www.linkedin.com/in/gunnar-beutner-693415167/",
      "Twitter": "https://twitter.com/gunnarbeutner",
      "Website": "https://beutner.name/"
    },
    "contributor": true
  },
  {
    "nick": "GMTA",
    "coordinates": [51.5163, 5.3634],
    "links": {
      "GitHub": "https://github.com/GMTA",
      "LinkedIn": "https://www.linkedin.com/in/jelleraaijmakers",
      "Twitter": "https://twitter.com/gmta_nl",
      "Website": "https://jelleraaijmakers.nl"
    },
    "contributor": true
  },
  {
    "nick": "MaxWipfli",
    "coordinates": [46.8818, 8.6439],
    "links": {
      "Website": "https://maxwipfli.ch",
      "Twitter": "https://twitter.com/MaxWipfli",
      "GitHub": "https://github.com/MaxWipfli"
    },
    "contributor": true
  },
  {
    "nick": "Richard Gráčik - Morc",
    "coordinates": [48.4614, 17.9846],
    "links": {
      "Twitter": "https://twitter.com/morciatka",
      "GitHub": "https://github.com/TheMorc"
    },
    "contributor": true
  },
  {
    "nick": "CxByte",
    "coordinates": [38.077, 46.292],
    "links": {
      "Twitter": "https://twitter.com/the_semicolon_",
      "GitHub": "https://github.com/alimpfard"
    },
    "contributor": true
  },
  {
    "nick": "awesomekling",
    "coordinates": [57.0838, 12.2507],
    "links": {
      "Twitter": "https://twitter.com/awesomekling",
      "GitHub": "https://github.com/awesomekling"
    },
    "contributor": true
  },
  {
    "nick": "breakgimme",
    "coordinates": [52.54682, 19.70638],
    "links": {
      "Website": "https://breakgimme.cf",
      "Twitter": "https://twitter.com/adamos9898",
      "GitHub": "https://github.com/breakgimme"
    }
  },
  {
    "nick": "bugaevc",
    "coordinates": [55.752, 37.6175],
    "links": {
      "Mastodon": "https://mastodon.technology/@bugaevc",
      "GitHub": "https://github.com/bugaevc"
    },
    "contributor": true
  },
  {
    "nick": "linusg",
    "coordinates": [51.51, -0.12],
    "links": {
      "Website": "https://linus.dev",
      "Twitter": "https://twitter.com/linusgroh",
      "GitHub": "https://github.com/linusg"
    },
    "contributor": true
  },
  {
    "nick": "networkException",
    "coordinates": [50.10811, 8.68222],
    "links": {
      "Website": "https://nwex.de",
      "Twitter": "https://twitter.com/netwrkException",
      "GitHub": "https://github.com/networkException"
    },
    "contributor": true
  },
  {
    "nick": "thakis",
    "coordinates": [40.4987, -74.0643],
    "links": {
      "GitHub": "https://github.com/nico"
    },
    "contributor": true
  },
  {
    "nick": "trflynn89",
    "coordinates": [42.4523774, -71.096081],
    "links": {
      "Website": "https://trflynn89.github.io/",
      "GitHub": "https://github.com/trflynn89"
    },
    "contributor": true
  },
  {
    "nick": "zaklaus",
    "coordinates": [48.5660393, 19.2284823],
    "links": {
      "Website": "https://madaraszd.net/",
      "GitHub": "https://github.com/zaklaus",
      "Twitter": "https://twitter.com/DMadarasz"
    }
  },
  {
    "nick": "IdanHo",
    "coordinates": [32.79, 34.98],
    "links": {
      "GitHub": "https://github.com/IdanHo"
    },
    "contributor": true
  },
  {
    "nick": "nicolasdanelon",
    "coordinates": [-34.61083, -58.4157],
    "links": {
      "Website": "https://nicolasmd.com.ar",
      "GitHub": "https://github.com/nicolasdanelon"
    }
  },
  {
    "nick": "boricj",
    "coordinates": [45.46, 6.08],
    "links": {
      "GitHub": "https://github.com/boricj"
    },
    "contributor": true
  },
  {
    "nick": "bgianf",
    "coordinates": [47.6062095, -122.3320708],
    "links": {
      "Website": "https://bjg.io/",
      "GitHub": "https://github.com/bgianfo",
      "Twitter": "https://twitter.com/bgianf"
    },
    "contributor": true
  },
  {
    "nick": "petelliott",
    "coordinates": [53.631611, -113.323975],
    "links": {
      "Github": "https://github.com/petelliott"
    },
    "contributor": true
  },
  {
    "nick": "r-paiva",
    "coordinates": [41.242, -8.665],
    "links": {
      "Github": "https://github.com/r-paiva"
    }
  },
  {
    "nick": "timmot",
    "coordinates": [-32.926, 151.763],
    "links": {
      "Github": "https://github.com/timmot"
    },
    "contributor": true
  },
  {
    "nick": "supercomputer7",
    "coordinates": [31.6445, 34.8879],
    "links": {
      "GitHub": "https://github.com/supercomputer7"
    },
    "contributor": true
  },
  {
    "nick": "vkoskiv",
    "coordinates": [62.238, 25.752],
    "links": {
      "Website": "https://vkoskiv.com",
      "GitHub": "https://github.com/vkoskiv",
      "Twitter": "https://twitter.com/vkoskiv"
    },
    "contributor": true
  },
  {
    "nick": "itamar8910",
    "coordinates": [32.785, 34.986],
    "links": {
      "GitHub": "https://github.com/itamar8910"
    },
    "contributor": true
  },
  {
    "nick": "BertalanD",
    "coordinates": [47.093, 17.912],
    "links": {
      "Website": "https://danielbertalan.dev",
      "GitHub": "https://github.com/BertalanD"
    },
    "contributor": true
  },
  {
    "nick": "sunverwerth",
    "coordinates": [52.516, 13.377],
    "links": {
      "GitHub": "https://github.com/sunverwerth"
    },
    "contributor": true
  },
  {
    "nick": "nooga",
    "coordinates": [52.4, 16.831],
    "links": {
      "GitHub": "https://github.com/nooga",
      "Twitter": "https://twitter.com/MGasperowicz"
    },
    "contributor": true
  },
  {
    "nick": "Reidond",
    "coordinates": [48.10563, 23.764078],
    "links": {
      "GitHub": "https://github.com/Reidond",
      "Twitter": "https://twitter.com/Reidond69"
    }
  },
  {
    "nick": "metmo",
    "coordinates": [59.317472, 18.03752],
    "links": {
      "GitHub": "https://github.com/metmo"
    },
    "contributor": true
  },
  {
    "nick": "gootik",
    "coordinates": [37.758317, -122.451371],
    "links": {
      "GitHub": "https://github.com/gootik"
    }
  },
  {
    "nick": "Clements",
    "coordinates": [44.83806, -0.57781],
    "links": {
      "Website": "https://lisible.xyz",
      "GitHub": "https://github.com/Lisible",
      "Twitter": "https://twitter.com/claymeuns"
    }
  },
  {
    "nick": "Zyper",
    "coordinates": [50.06772, 19.99156],
    "links": {
      "GitHub": "https://github.com/ZyperPL",
      "Twitter": "https://twitter.com/zyper_pl"
    }
  },
  {
    "nick": "alvanrahimli",
    "coordinates": [40.33361, 49.74521],
    "links": {
      "Website": "https://rahim.li",
      "GitHub": "https://github.com/alvanrahimli",
      "Facebook": "https://facebook.com/alvan.rahimli"
    }
  },
  {
    "nick": "tbhaxor",
    "coordinates": [30.733315, 76.779419],
    "links": {
      "GitHub": "https://github.com/tbhaxor",
      "Twitter": "https://twitter.com/tbhaxor",
      "LinkedIn": "https://linkedin.com/in/gurkirat--singh"
    }
  },
  {
    "nick": "Omerktn",
    "coordinates": [41.03422, 30.305053],
    "links": {
      "GitHub": "https://github.com/Omerktn",
      "Twitter": "https://twitter.com/okurttekin"
    }
  },
  {
    "nick": "ADKaster",
    "coordinates": [39.762, -104.995],
    "links": {
      "GitHub": "https://github.com/ADKaster"
    },
    "contributor": true
  },
  {
    "nick": "conorbros",
    "coordinates": [-27.470125, 153.021072],
    "links": {
      "GitHub": "https://github.com/conorbros"
    }
  },
  {
    "nick": "Lubrsi",
    "coordinates": [53.37976, -1.46991],
    "links": {
      "GitHub": "https://github.com/Lubrsi"
    },
    "contributor": true
  }
]
